City_ID,City,Lat,Lng,Max Temp,Humidity,Cloudiness,Wind Speed,Country,Date
0,Saint George,37.1041,-113.5841,53.44,36,100,8.99,US,1675718339
1,Villazon,-22.0866,-65.5942,55.96,53,99,15.39,BO,1675718452
2,A Coruna,43.3713,-8.396,47.79,66,0,5.75,ES,1675718454
3,Bluff,-46.6,168.3333,58.01,87,85,24.43,NZ,1675718455
4,Luderitz,-26.6481,15.1594,64.67,91,8,14.38,NA,1675718456
5,Puerto Ayora,-0.7393,-90.3518,85.96,74,51,15.01,EC,1675718457
6,Hermanus,-34.4187,19.2345,71.8,91,12,6.91,ZA,1675718458
7,Sanok,49.5557,22.2056,18.27,99,72,0.78,PL,1675718458
8,Hamilton,39.1834,-84.5333,49.42,51,0,4.61,US,1675717920
9,Salalah,17.0151,54.0924,71.69,56,0,4.61,OM,1675718459
10,Tuktoyaktuk,69.4541,-133.0374,-38.2,67,75,2.3,CA,1675718296
11,Vao,-22.6667,167.4833,78.51,70,40,16.24,NC,1675717890
12,Yellowknife,62.456,-114.3525,-8.88,70,75,4.61,CA,1675718459
13,Karmaskaly,54.3709,56.1837,-2.29,97,100,1.45,RU,1675718459
14,Codrington,-38.2667,141.9667,59.85,78,47,6.06,AU,1675718460
15,Avarua,-21.2078,-159.775,84.25,79,75,11.5,CK,1675718460
16,Ahipara,-35.1667,173.1667,69.15,67,11,8.41,NZ,1675718461
17,Yaan,7.3833,8.5667,87.01,14,81,2.59,NG,1675718462
18,Te Horo,-40.8084,175.1233,64.33,84,70,10.56,NZ,1675718462
19,Lompoc,34.6391,-120.4579,64.78,60,20,21.85,US,1675718463
20,Arraial Do Cabo,-22.9661,-42.0278,80.46,74,75,5.75,BR,1675718463
21,Sao Gabriel Da Cachoeira,-0.1303,-67.0892,80.56,86,92,0.29,BR,1675718463
22,Hobart,-42.8794,147.3294,59.05,67,20,8.05,AU,1675718464
23,Maragogi,-9.0122,-35.2225,78.82,74,100,9.15,BR,1675718332
24,Cherskiy,68.75,161.3,-36.92,100,100,5.64,RU,1675718465
25,Mar Del Plata,-38.0023,-57.5575,71.62,62,0,18.41,AR,1675718466
26,Clyde River,70.4692,-68.5914,-27.17,68,20,6.91,CA,1675718466
27,Rikitea,-23.1203,-134.9692,78.57,74,60,7.54,PF,1675718467
28,Verkhoyansk,67.5447,133.385,-53.3,100,89,1.34,RU,1675718467
29,Dikson,73.5069,80.5464,-20.06,100,100,6.04,RU,1675718468
30,Atkinson,42.8384,-71.147,44.78,60,100,5.01,US,1675718468
31,Kapaa,22.0752,-159.319,79.12,76,40,16.11,US,1675718364
32,Denpasar,-8.65,115.2167,78.46,94,75,21.85,ID,1675718470
33,Mataura,-46.1927,168.8643,66.69,52,63,10.56,NZ,1675718471
34,Longyearbyen,78.2186,15.6401,28.24,93,100,35.68,SJ,1675718472
35,Ushuaia,-54.8,-68.3,53.26,76,75,13.8,AR,1675718473
36,Palmer,42.1584,-72.3287,43.97,58,75,18.41,US,1675718271
37,Sao Marcos,-28.9711,-51.0681,81.19,50,76,4.45,BR,1675718474
38,Port Alfred,-33.5906,26.891,74.71,91,100,1.54,ZA,1675718474
39,Punta Arenas,-53.15,-70.9167,59.11,63,75,19.57,CL,1675718303
40,Atuona,-9.8,-139.0333,78.1,76,5,14.63,PF,1675718475
41,Port Augusta,-32.5,137.7667,71.26,46,0,6.96,AU,1675718383
42,Dingle,10.9995,122.6711,74.25,92,100,6.98,PH,1675718475
43,Saskylakh,71.9167,114.0833,-25.13,100,98,3.15,RU,1675718476
44,Souillac,-20.5167,57.5167,79.18,89,75,11.5,MU,1675718477
45,Chuy,-33.6971,-53.4616,77.56,56,100,9.1,UY,1675718478
46,Leamington,42.0549,-82.6062,31.91,69,19,5.01,CA,1675718342
47,Nanortalik,60.1432,-45.2371,11.79,84,100,15.03,GL,1675717779
48,Tiksi,71.6872,128.8694,-31.95,100,90,5.19,RU,1675718480
49,Tura,25.5198,90.2201,57.11,53,0,3.22,IN,1675718481
50,Lagoa,39.05,-27.9833,55.9,73,100,26.73,PT,1675718481
51,Rivadavia,-33.1905,-68.4608,96.44,15,12,12.84,AR,1675718357
52,Rio Grande,-32.035,-52.0986,87.91,65,0,11.01,BR,1675718241
53,Kaitangata,-46.2817,169.8464,67.39,48,13,10.04,NZ,1675718482
54,Goderich,43.7501,-81.7165,27.91,80,48,3.49,CA,1675717966
55,Nyanguge,-2.55,33.2,69.03,73,100,11.23,TZ,1675718483
56,Hithadhoo,-0.6,73.0833,81.18,71,63,11.95,MV,1675718483
57,Dunedin,-45.8742,170.5036,66.6,57,3,5.41,NZ,1675718483
58,Port Hardy,50.6996,-127.4199,44.78,100,100,11.5,CA,1675718484
59,Tautira,-17.7333,-149.15,80.38,75,43,14.94,PF,1675718487
60,Albany,42.6001,-73.9662,36.57,70,88,7.92,US,1675718315
61,Dawei,14.0833,98.2,71.64,88,44,2.64,MM,1675718489
62,General Roca,-39.0333,-67.5833,94.62,19,33,3.58,AR,1675718490
63,Foumban,5.7291,10.9001,70.36,22,33,2.84,CM,1675718490
64,Aklavik,68.2191,-135.0107,-29.2,68,75,2.3,CA,1675718491
65,Vardo,70.3705,31.1107,31.98,93,75,20.71,NO,1675718492
66,Sikasso,10.9167,-7.0,83.41,15,100,2.57,ML,1675718492
67,Jamestown,42.097,-79.2353,30.02,93,100,5.75,US,1675718266
68,Benguela,-12.5763,13.4055,76.42,80,89,6.2,AO,1675718493
69,Kodiak,57.79,-152.4072,36.91,60,0,4.61,US,1675718493
70,Fortuna,40.5982,-124.1573,54.93,68,0,9.22,US,1675718493
71,Torbay,47.6666,-52.7314,38.57,96,100,8.05,CA,1675718494
72,Karratha,-20.7377,116.8463,85.26,66,3,3.67,AU,1675718494
73,Cidreira,-30.1811,-50.2056,78.01,65,12,8.63,BR,1675718495
74,Ewa Beach,21.3156,-158.0072,82.35,65,20,18.41,US,1675718497
75,Port-Cartier,50.0334,-66.8654,13.68,76,85,5.14,CA,1675718497
76,Eha Amufu,6.6592,7.7596,86.04,32,65,1.43,NG,1675718498
77,Nikolskoye,59.7035,30.7861,28.29,96,94,3.51,RU,1675718499
78,Faanui,-16.4833,-151.75,81.1,75,8,15.55,PF,1675718500
79,Sola,-13.8833,167.55,79.47,94,100,0.0,VU,1675718502
80,Biryukove,47.9563,39.7384,18.23,84,100,16.89,UA,1675718503
81,Hofn,64.2539,-15.2082,36.93,71,40,32.48,IS,1675718504
82,Nerchinskiy Zavod,51.3088,119.61,-30.5,100,89,1.66,RU,1675718505
83,East London,-33.0153,27.9116,75.63,84,1,18.14,ZA,1675718506
84,Baixo Guandu,-19.5189,-41.0158,85.01,66,73,2.21,BR,1675718506
85,Barrow,71.2906,-156.7887,-7.58,71,100,6.91,US,1675718507
86,Bambous Virieux,-20.3428,57.7575,79.05,89,75,11.5,MU,1675718508
87,Busselton,-33.65,115.3333,66.58,76,97,11.68,AU,1675718509
88,Storforshei,66.4043,14.5233,44.38,87,75,13.8,NO,1675718509
89,Igarka,67.4667,86.5833,-7.46,100,100,5.55,RU,1675718510
90,Bethel,41.3712,-73.414,46.71,64,100,11.5,US,1675718277
91,Pisco,-13.7,-76.2167,80.65,74,0,18.41,PE,1675718510
92,San Quintin,30.4833,-115.95,61.23,55,15,16.82,MX,1675718511
93,Beringovskiy,63.05,179.3167,-20.15,94,95,8.48,RU,1675718511
94,Saldanha,-33.0117,17.9442,66.25,97,69,16.84,ZA,1675718511
95,Saint-Pierre,-21.3393,55.4781,80.28,78,0,10.36,RE,1675718512
96,Hilo,19.7297,-155.09,78.28,87,75,3.44,US,1675718512
97,Bengkulu,-3.8004,102.2655,75.45,84,82,6.04,ID,1675718513
98,Butler,39.4501,-84.5666,48.02,54,0,8.05,US,1675718051
99,Mount Isa,-20.7333,139.5,76.77,94,100,9.22,AU,1675718514
100,Muroto,33.2833,134.15,52.9,64,100,17.31,JP,1675718514
101,Moerai,-22.4333,-151.3333,79.45,76,94,10.29,PF,1675718515
102,Coihaique,-45.5752,-72.0662,66.15,42,0,10.36,CL,1675718515
103,Lerwick,60.1545,-1.1494,48.2,77,100,23.58,GB,1675718255
104,Faya,18.3851,42.4509,52.32,61,99,3.18,SA,1675717944
105,Krasnoselkup,65.7,82.4667,-5.28,99,99,4.72,RU,1675718516
106,Isangel,-19.55,169.2667,86.11,79,75,2.3,VU,1675718516
107,Beyneu,45.3167,55.2,35.2,84,100,17.05,KZ,1675718378
108,Derzhavinsk,51.1,66.3167,4.21,97,91,7.25,KZ,1675718517
109,Sao Filipe,14.8961,-24.4956,69.06,61,8,16.69,CV,1675718518
110,Hambantota,6.1241,81.1185,75.72,88,92,7.7,LK,1675718518
111,Sept-Iles,50.2001,-66.3821,14.0,67,20,8.05,CA,1675718519
112,Nioro,13.35,-15.75,79.29,18,14,8.19,GM,1675718292
113,Puerto Escondido,15.85,-97.0667,83.41,58,1,5.77,MX,1675718466
114,Mount Gambier,-37.8333,140.7667,56.43,86,11,4.41,AU,1675717994
115,Pedernales,18.0384,-71.744,81.68,65,69,3.38,DO,1675718519
116,Altus,34.6381,-99.334,78.31,40,0,12.66,US,1675718520
117,Murray Bridge,-35.1167,139.2667,59.13,76,0,3.51,AU,1675718520
118,Kavieng,-2.5744,150.7967,81.18,80,100,11.48,PG,1675718520
119,Uppsala,60.0,17.75,29.64,86,100,3.44,SE,1675718521
120,Cocorit,27.5833,-109.9667,77.34,13,66,10.94,MX,1675718521
121,Chase,50.8165,-119.6857,46.15,91,100,4.12,CA,1675718521
122,Chengde,40.9725,117.9361,23.86,47,55,1.43,CN,1675718522
123,Necochea,-38.5473,-58.7368,69.91,46,29,18.16,AR,1675718522
124,Qaanaaq,77.484,-69.3632,-18.27,98,100,3.67,GL,1675718523
125,Katsuura,35.1333,140.3,49.62,69,100,7.74,JP,1675718524
126,Ribeira Grande,38.5167,-28.7,57.78,72,40,20.71,PT,1675718525
127,Gairatganj,23.4202,78.2385,62.37,35,0,4.41,IN,1675718527
128,Kita,13.0349,-9.4895,85.19,14,100,2.37,ML,1675718528
129,Nisia Floresta,-6.0911,-35.2086,79.61,79,32,9.57,BR,1675718528
130,Anloga,5.7947,0.8973,81.1,86,55,15.64,GH,1675718530
131,Suntar,62.1444,117.6319,-43.94,100,93,1.57,RU,1675718530
132,Brae,60.3964,-1.353,47.61,78,97,25.17,GB,1675717976
133,Namatanai,-3.6667,152.4333,78.78,84,98,3.62,PG,1675718532
134,Namibe,-15.1961,12.1522,71.17,77,92,4.79,AO,1675718534
135,Aldan,58.6031,125.3894,-42.61,96,36,4.81,RU,1675718535
136,La Ronge,55.1001,-105.2842,16.65,84,100,13.38,CA,1675717971
137,Chokurdakh,70.6333,147.9167,-24.75,99,100,2.91,RU,1675718537
138,Kangundo,-1.2979,37.3471,57.99,64,51,1.23,KE,1675718428
139,Shebunino,46.4339,141.8603,18.18,65,95,9.64,RU,1675718538
140,Kungurtug,50.5994,97.5228,-14.53,99,61,2.04,RU,1675718540
141,Alghero,40.5589,8.3181,44.69,87,100,8.05,IT,1675718540
142,Upernavik,72.7868,-56.1549,-9.72,94,100,7.76,GL,1675718292
143,Moron,-34.6534,-58.6198,93.06,37,0,7.74,AR,1675718541
144,Beian,63.6559,9.5683,46.0,81,75,6.91,NO,1675718541
145,Sioux Lookout,50.1001,-91.917,32.65,84,100,14.32,CA,1675717671
146,Lluta,-16.0147,-72.0142,50.83,96,100,6.98,PE,1675718542
147,Lebu,-37.6167,-73.65,62.42,71,0,19.24,CL,1675718542
148,Juneau,58.3019,-134.4197,36.21,100,100,0.0,US,1675717874
149,Boyolangu,-8.1181,111.8935,74.41,89,100,1.43,ID,1675718543
150,Shestakovo,56.4915,103.96,3.15,99,100,2.84,RU,1675718544
151,Tessalit,20.1986,1.0114,75.94,10,99,7.27,ML,1675718545
152,Khatanga,71.9667,102.5,-40.94,100,57,3.58,RU,1675718545
153,Turukhansk,65.8167,87.9833,-17.0,100,99,4.36,RU,1675718545
154,Ballina,-28.8667,153.5667,70.79,94,99,4.05,AU,1675718546
155,High Level,58.5169,-117.136,8.71,72,75,3.44,CA,1675718546
156,Bouloupari,-21.8667,166.05,82.31,79,51,4.03,NC,1675718547
157,Qaqortoq,60.7167,-46.0333,-7.91,71,69,7.92,GL,1675718547
158,Castro,-24.7911,-50.0119,75.97,64,30,0.38,BR,1675718548
159,Bogorodskoye,56.55,37.8833,3.11,100,95,5.32,RU,1675718549
160,Sinazongwe,-17.2614,27.4618,75.6,76,13,3.47,ZM,1675718549
161,Luanda,-8.8368,13.2343,80.6,78,40,6.91,AO,1675718549
162,Cape Town,-33.9258,18.4232,71.11,89,40,16.11,ZA,1675718430
163,Tromso,69.6496,18.957,42.82,87,75,29.93,NO,1675718553
164,Sambava,-14.2667,50.1667,75.52,89,100,3.98,MG,1675718554
165,Bonthe,7.5264,-12.505,77.2,75,99,9.57,SL,1675718554
166,Paamiut,61.994,-49.6678,11.59,89,100,3.49,GL,1675718555
167,Fort Nelson,58.8053,-122.7002,17.94,59,40,1.01,CA,1675718556
168,Omboue,-1.5746,9.2618,78.91,84,100,5.48,GA,1675718557
169,Sulmona,42.0479,13.9291,34.5,91,90,2.66,IT,1675718557
170,Half Moon Bay,37.4636,-122.4286,61.11,56,0,16.11,US,1675718558
171,Asau,46.4333,26.4,23.92,94,70,4.83,RO,1675718560
172,Bredasdorp,-34.5322,20.0403,70.99,87,92,4.76,ZA,1675718562
173,Cayhagan,9.6697,122.4256,76.44,87,89,6.87,PH,1675718562
174,Geraldton,-28.7667,114.6,63.01,82,40,6.91,AU,1675718564
175,Ponta Do Sol,32.6667,-17.1,59.63,55,20,9.42,PT,1675718565
176,Deputatskiy,69.3,139.9,-29.87,98,100,4.09,RU,1675718567
177,Mahebourg,-20.4081,57.7,79.09,89,75,11.5,MU,1675718568
178,Cockburn Town,21.4612,-71.1419,80.56,65,40,12.66,TC,1675718570
179,Broome,42.2506,-75.833,34.63,81,100,10.36,US,1675718315
180,Aki,33.5,133.9,44.55,81,100,5.86,JP,1675718572
181,Vila,42.0304,-8.1588,45.48,63,0,6.76,PT,1675718572
182,Palasa,18.7667,84.4167,65.55,76,0,5.57,IN,1675718574
183,Vaini,-21.2,-175.2,82.56,78,75,5.75,TO,1675718575
184,Severo-Kurilsk,50.6789,156.125,24.51,71,100,25.28,RU,1675718575
185,Padang,-0.9492,100.3543,73.45,81,100,3.6,ID,1675718576
186,Pevek,69.7008,170.3133,-34.26,100,100,3.6,RU,1675718577
187,Huaihua,27.5494,109.9592,45.48,93,100,3.24,CN,1675718577
188,Awbari,26.5921,12.7805,53.47,49,82,9.42,LY,1675718578
189,Antalaha,-14.9003,50.2788,74.1,91,100,3.56,MG,1675718579
190,Muskegon,43.3,-86.1334,37.02,62,75,13.8,US,1675718439
191,Nuuk,64.1835,-51.7216,9.21,85,75,3.44,GL,1675718558
192,Norman Wells,65.282,-126.8329,-14.76,76,75,5.75,CA,1675718579
193,Atar,20.5169,-13.0499,65.57,23,0,8.93,MR,1675718579
194,Airai,-8.9266,125.4092,59.85,91,74,2.06,TL,1675718580
195,Axim,4.8699,-2.2405,79.57,87,98,9.98,GH,1675718580
196,Nishihara,26.1842,127.7558,67.28,91,75,13.8,JP,1675718581
197,Butaritari,3.0707,172.7902,81.39,79,59,19.84,KI,1675718582
198,Languyan,5.2618,120.0807,76.82,85,91,1.92,PH,1675718583
199,Cayenne,4.9333,-52.3333,75.24,94,75,12.66,GF,1675718583
200,Svetlyy Yar,48.4748,44.781,15.4,89,100,12.28,RU,1675718583
201,Victoria,22.2855,114.1577,68.95,90,99,8.01,HK,1675718584
202,Amapa,1.0,-52.0,75.54,97,96,3.69,BR,1675718584
203,Aniva,46.7144,142.5294,-3.89,96,89,3.0,RU,1675718585
204,Matagami,49.7502,-77.6328,12.31,62,0,12.66,CA,1675718586
205,Nosy Varika,-20.5833,48.5333,73.11,94,100,2.19,MG,1675718587
206,Klaksvik,62.2266,-6.589,45.52,70,100,30.24,FO,1675718587
207,Aranos,-24.1333,19.1167,78.28,52,97,7.58,NA,1675718588
208,Sungaipenuh,-2.0833,101.3833,63.59,87,91,1.9,ID,1675718592
209,Mandalgovi,45.7625,106.2708,5.97,86,99,6.76,MN,1675718593
210,Lavrentiya,65.5833,-171.0,-15.39,89,100,4.21,RU,1675718596
211,Hasaki,35.7333,140.8333,43.21,56,100,4.9,JP,1675718598
212,Bayir,37.2687,28.2167,36.12,79,91,15.43,TR,1675718598
213,Maldonado,-34.6667,-54.9167,79.99,52,0,11.07,UY,1675718599
214,Bilma,18.6853,12.9164,66.06,15,15,8.7,NE,1675718599
215,Kurilsk,45.2333,147.8833,21.49,59,99,17.2,RU,1675718600
216,Kemijarvi,66.7131,27.4306,28.56,95,100,10.78,FI,1675718601
217,Egvekinot,66.3167,-179.1667,-17.09,88,100,10.54,RU,1675718601
218,Jilib,0.4883,42.7854,75.11,84,6,9.51,SO,1675718602
219,Paso De Los Toros,-32.8167,-56.5167,90.14,22,97,6.58,UY,1675718323
220,Touros,-5.1989,-35.4608,80.06,78,7,12.91,BR,1675718603
221,Carnarvon,-24.8667,113.6333,75.45,70,0,19.24,AU,1675718547
222,Raudeberg,61.9875,5.1352,43.86,71,100,23.22,NO,1675718604
223,Sananduva,-27.9497,-51.8067,83.37,31,84,3.44,BR,1675718605
224,Nanning,22.8167,108.3167,55.85,93,100,4.7,CN,1675718605
225,Zambezi,-13.5432,23.1047,65.08,96,100,4.21,ZM,1675718606
226,Mehamn,71.0357,27.8492,39.15,81,75,31.07,NO,1675718606
227,Tasiilaq,65.6145,-37.6368,14.16,91,99,3.85,GL,1675718606
228,Carangola,-20.7331,-42.0294,77.83,86,100,1.61,BR,1675718607
229,Guerrero Negro,27.9769,-114.0611,62.73,54,98,20.04,MX,1675718607
230,Washington,47.5001,-120.5015,46.92,59,100,5.82,US,1675718520
231,Nemuro,43.3236,145.575,24.6,94,100,10.07,JP,1675718607
232,Torrington,41.8007,-73.1212,45.12,68,84,8.99,US,1675718608
233,San Patricio,28.017,-97.5169,80.69,56,13,20.51,US,1675718608
234,Bose,45.4612,8.0137,37.29,83,100,6.93,IT,1675718608
235,Cooma,-36.2333,149.1333,59.63,84,100,1.68,AU,1675718609
236,Talara,-4.5772,-81.2719,86.76,54,0,13.8,PE,1675718525
237,Genhe,50.7833,121.5167,-28.97,100,93,0.94,CN,1675718609
238,Itamaraca,-7.7478,-34.8256,78.85,72,73,9.91,BR,1675718610
239,Solhan,38.9634,41.0293,31.91,98,100,6.4,TR,1675718610
240,Quatre Cocos,-20.2078,57.7625,78.91,80,77,14.47,MU,1675718610
241,Bac Lieu,9.285,105.7244,75.31,89,96,8.84,VN,1675718611
242,Whitehorse,60.7161,-135.0538,34.02,50,40,10.36,CA,1675718512
243,Huilong,31.8111,121.655,44.92,92,100,9.64,CN,1675718612
244,Komsomolskiy,40.4272,71.7189,34.52,93,61,6.91,UZ,1675718613
245,Sorland,67.667,12.6934,46.26,90,100,42.21,NO,1675718613
246,Nizip,37.0097,37.7942,41.13,87,100,21.41,TR,1675718613
247,Tibati,6.4667,12.6333,75.69,15,2,7.38,CM,1675718614
248,Olafsvik,64.8945,-23.7142,30.94,63,100,40.09,IS,1675718614
249,Mayo,38.8876,-76.5119,50.14,55,100,16.11,US,1675718614
250,Kruisfontein,-34.0033,24.7314,71.89,91,84,1.92,ZA,1675718615
251,Rosarito,32.3333,-117.0333,68.23,52,0,15.84,MX,1675718615
252,Iqaluit,63.7506,-68.5145,-25.87,68,40,10.36,CA,1675718616
253,Dongsheng,39.8161,109.9776,23.38,43,0,7.87,CN,1675718616
254,Siderno,38.2779,16.302,39.34,56,100,6.78,IT,1675718617
255,Constitucion,-35.3333,-72.4167,69.48,64,23,14.92,CL,1675718617
256,Majene,-3.5403,118.9707,77.0,77,99,5.59,ID,1675718617
257,Hami,42.8,93.45,32.65,42,100,2.53,CN,1675718618
258,Porbandar,21.6422,69.6093,68.88,78,25,9.51,IN,1675718618
259,Muros,42.7762,-9.0603,48.83,66,0,9.22,ES,1675718618
260,Tahoua,14.8888,5.2692,80.58,12,98,4.61,NE,1675718620
261,Alice Springs,-23.7,133.8833,65.75,63,40,5.75,AU,1675718380
262,Leningradskiy,69.3833,178.4167,-30.19,98,98,8.1,RU,1675718620
263,Hualmay,-11.0964,-77.6139,76.62,74,52,7.83,PE,1675718620
264,Flinders,-34.5833,150.8552,73.18,87,85,1.99,AU,1675718621
265,Altamira,-3.2033,-52.2064,86.09,70,0,5.75,BR,1675718468
266,Arman,59.7,150.1667,-19.93,83,84,8.86,RU,1675718621
267,New Norfolk,-42.7826,147.0587,58.71,62,0,3.0,AU,1675718622
268,Bereda,43.2686,-7.5406,40.41,98,2,5.99,ES,1675718622
269,Shuiji,27.4214,118.345,56.95,96,99,3.13,CN,1675718622
270,Okhotsk,59.3833,143.3,-10.44,80,100,11.74,RU,1675718622
271,Nicoya,10.1483,-85.452,90.99,40,6,16.08,CR,1675718623
272,Kaniama,-7.5667,24.1833,65.39,92,95,2.71,CD,1675718623
273,Ligayan,4.6533,119.4706,81.14,74,96,2.62,PH,1675718623
274,Georgetown,5.4112,100.3354,78.73,91,20,6.91,MY,1675718624
275,Presidencia Roque Saenz Pena,-26.7852,-60.4388,102.96,14,1,2.91,AR,1675718624
276,Mangochi,-14.4782,35.2645,70.11,97,100,3.71,MW,1675718624
277,Paka,4.6374,103.4368,73.33,100,94,2.3,MY,1675718625
278,Magadan,59.5667,150.8,-17.25,79,65,8.3,RU,1675718625
279,Port Elizabeth,-33.918,25.5701,74.1,96,20,4.61,ZA,1675718625
280,Kabale,-1.2486,29.9899,61.79,57,59,1.05,UG,1675718626
281,Mirnyy,62.5353,113.9611,-30.77,66,98,7.0,RU,1675718626
282,Yulara,-25.2406,130.9889,71.87,24,0,7.05,AU,1675718626
283,Saint-Philippe,-21.3585,55.7679,80.19,84,81,10.8,RE,1675718627
284,San Cristobal,7.7669,-72.225,78.98,46,68,5.17,VE,1675718628
285,Myaundzha,63.0494,147.1858,-37.39,98,97,2.39,RU,1675718628
286,Borgarnes,64.5383,-21.9206,30.81,61,100,29.1,IS,1675718629
287,Alta Floresta,-9.8756,-56.0861,78.3,92,88,3.4,BR,1675718629
288,Sibolga,1.7427,98.7792,76.55,85,100,1.9,ID,1675718629
289,Annau,37.8876,58.516,40.5,60,28,4.61,TM,1675718630
290,Yumen,40.2833,97.2,25.0,45,75,9.51,CN,1675718630
291,Daru,-9.0763,143.2092,75.79,93,100,8.57,PG,1675718632
292,Jiwani,25.05,61.7417,70.81,66,5,9.44,PK,1675718632
293,Korla,41.7597,86.1469,31.91,58,100,3.87,CN,1675718633
294,Esperance,-33.8667,121.9,66.83,91,0,13.42,AU,1675718633
295,Gazojak,41.1875,61.4036,37.44,66,100,10.83,TM,1675718633
296,Zhangye,38.9342,100.4517,30.76,20,15,4.79,CN,1675718633
297,Miandrivazo,-19.5167,45.4667,77.81,82,100,1.01,MG,1675718634
298,Richards Bay,-28.783,32.0377,72.73,92,0,3.33,ZA,1675718634
299,Cabedelo,-6.9811,-34.8339,79.47,71,78,13.53,BR,1675718634
300,Vila Velha,-20.3297,-40.2925,80.94,80,0,6.91,BR,1675718635
301,Thompson,55.7435,-97.8558,15.96,86,100,11.5,CA,1675718633
302,Portland,45.5234,-122.6762,51.78,80,75,12.66,US,1675718370
303,Husavik,66.0449,-17.3389,29.64,83,69,14.12,IS,1675718635
304,Cabo San Lucas,22.8909,-109.9124,81.7,45,0,11.5,MX,1675718635
305,Bali,-8.5,115.0,77.97,88,100,8.7,ID,1675718602
306,Bay Roberts,47.5999,-53.2648,38.14,96,100,1.99,CA,1675718636
307,Santa Rosa,14.3122,121.1114,77.09,91,90,6.15,PH,1675718539
308,Damaturu,11.747,11.9608,73.0,17,99,9.08,NG,1675718636
309,Dudinka,69.4058,86.1778,-7.38,98,99,5.97,RU,1675718637
310,Mokolo,10.7398,13.8019,72.21,19,67,6.49,CM,1675718637
311,Banjarmasin,-3.3244,114.591,75.34,93,98,1.16,ID,1675718360
312,Santa Maria,-29.6842,-53.8069,88.9,37,20,3.44,BR,1675718638
313,Pacific Grove,36.6177,-121.9166,59.41,63,0,8.05,US,1675718638
314,Gimli,50.6336,-96.9907,30.22,80,100,11.5,CA,1675718476
315,Hervey Bay,-25.2986,152.8535,77.14,68,43,18.34,AU,1675718639
316,Akonolinga,3.7667,12.25,71.38,25,50,0.87,CM,1675718639
317,Cascais,38.6979,-9.4215,53.94,76,54,14.0,PT,1675718639
318,Shache,38.4167,77.2406,30.42,61,100,4.63,CN,1675718640
319,Santa Cruz,-17.8,-63.1667,86.05,58,40,14.97,BO,1675718640
320,Tomigusuku,26.185,127.675,67.77,90,20,13.8,JP,1675718641
321,Muli,2.9167,73.5667,81.12,69,100,11.74,MV,1675718641
322,Naze,28.3667,129.4833,63.52,86,11,12.1,JP,1675718642
323,Cross Lanes,38.4204,-81.7907,47.61,57,20,3.44,US,1675718643
324,Santa Isabel Do Rio Negro,-0.4139,-65.0192,80.71,89,87,2.84,BR,1675718644
325,Los Llanos De Aridane,28.6585,-17.9182,58.75,73,20,16.11,ES,1675718645
326,Ketchikan,55.3422,-131.6461,43.27,75,40,5.75,US,1675718645
327,Melito Di Porto Salvo,37.9222,15.7714,45.73,49,100,4.61,IT,1675718645
328,Northam,51.0333,-4.2167,39.61,90,24,4.0,GB,1675718646
329,Meulaboh,4.1363,96.1285,74.75,84,100,5.68,ID,1675718646
330,Segovia,41.1667,-4.0,37.44,75,1,8.88,ES,1675718412
331,San Juan,-31.5375,-68.5364,97.99,13,0,19.06,AR,1675718647
332,Zeya,53.75,127.2667,-25.64,87,11,5.44,RU,1675718648
333,Pemba,-12.974,40.5178,77.7,83,75,6.91,MZ,1675718649
334,Kedrovyy,56.1667,91.8167,-8.14,100,92,3.44,RU,1675718649
335,Sirsa,29.5333,75.0167,56.21,62,0,8.57,IN,1675718649
336,Miramar,25.9873,-80.2323,79.0,65,20,14.97,US,1675718649
337,Ambon,-3.6954,128.1814,77.14,88,40,1.14,ID,1675718650
338,Ola,59.5833,151.2833,-18.74,86,68,9.6,RU,1675718650
339,Havoysund,70.9963,24.6622,39.43,97,100,31.61,NO,1675718651
340,Quebec,46.8123,-71.2145,23.07,72,77,5.01,CA,1675718525
341,Ilulissat,69.2167,-51.1,-2.18,78,75,8.05,GL,1675718651
342,Chimbote,-9.0853,-78.5783,76.95,70,28,9.66,PE,1675718594
343,Auki,-8.7676,160.7034,77.85,86,100,4.83,SB,1675718651
344,Arkadelphia,34.1209,-93.0538,68.99,66,75,13.8,US,1675718652
345,Rawson,-43.3002,-65.1023,79.81,35,42,25.34,AR,1675718652
346,Alyangula,-13.8483,136.4192,81.57,66,63,3.58,AU,1675718652
347,Acapulco,16.8634,-99.8901,84.02,65,0,13.8,MX,1675718589
348,Mul,20.0667,79.6667,67.21,24,17,3.36,IN,1675718653
349,Bilibino,68.0546,166.4372,-35.91,100,98,0.94,RU,1675718653
350,Roald,62.5833,6.1333,48.34,71,75,17.27,NO,1675718654
351,Kalmunai,7.4167,81.8167,76.12,87,56,6.51,LK,1675718654
352,Alofi,-19.0595,-169.9187,84.09,74,75,9.22,NU,1675718654
353,Eyl,7.9803,49.8164,74.48,77,17,14.9,SO,1675718654
354,Tonkino,57.3726,46.4629,-6.29,100,100,2.1,RU,1675718655
355,Bathsheba,13.2167,-59.5167,81.21,65,20,18.41,BB,1675718655
356,Caningay,9.8297,122.6442,73.99,90,97,4.27,PH,1675718655
357,Narsaq,60.9167,-46.05,5.22,66,40,8.14,GL,1675718656
358,Buala,-8.145,159.5921,80.24,83,99,8.14,SB,1675718656
359,Tubuala,9.5167,-79.0333,79.39,82,29,12.46,PA,1675718656
360,Porto Novo,6.4965,2.6036,84.02,83,100,8.57,BJ,1675718657
361,Najran,17.4924,44.1277,66.85,54,80,6.58,SA,1675718458
362,Pierre,44.3683,-100.351,44.28,67,100,19.57,US,1675718658
363,Fairbanks,64.8378,-147.7164,5.09,78,40,0.0,US,1675718399
364,Augustow,53.8432,22.9798,29.08,89,71,7.81,PL,1675718659
365,Ancud,-41.8697,-73.8203,62.53,66,0,5.88,CL,1675718659
366,Orange,33.7,-117.7675,70.23,33,0,10.36,US,1675718658
367,Lasa,46.6166,10.7002,32.88,96,93,4.32,IT,1675718659
368,Sokoto,13.0609,5.239,81.05,16,100,9.95,NG,1675718660
369,Lata,40.1629,-8.3327,43.84,66,1,4.92,PT,1675718660
370,Pandan,14.0453,124.1694,76.21,90,84,8.46,PH,1675718660
371,Floresta,-8.6011,-38.5686,87.08,45,87,19.8,BR,1675718661
372,Carutapera,-1.195,-46.02,76.73,93,99,6.38,BR,1675718450
373,Benghazi,32.1167,20.0667,54.9,60,100,18.81,LY,1675718662
374,Cilegon,-6.0174,106.0538,78.6,79,100,6.22,ID,1675718663
375,Xuddur,4.1213,43.8894,74.84,59,34,14.47,SO,1675718663
376,Valparaiso,-33.0393,-71.6273,73.0,64,75,13.8,CL,1675718601
377,Westport,41.1415,-73.3579,48.24,60,0,21.85,US,1675718442
378,Staropyshminsk,56.9387,60.903,14.07,97,100,3.42,RU,1675718663
379,Novyy Urengoy,66.0833,76.6333,-14.35,100,100,5.1,RU,1675718664
380,Coruripe,-10.1256,-36.1756,79.75,74,100,12.33,BR,1675718407
381,Tambacounda,13.7539,-13.7586,86.05,14,0,6.91,SN,1675718664
382,Sidi Ali,36.0998,0.4206,48.45,83,0,9.75,DZ,1675718664
383,Haines Junction,60.7522,-137.5108,37.35,32,76,2.3,CA,1675718669
384,Ourinhos,-22.9789,-49.8706,76.78,77,68,3.0,BR,1675718616
385,Kaeo,-35.1,173.7833,71.33,85,22,3.69,NZ,1675718670
386,Sangar,63.9242,127.4739,-53.23,100,78,0.96,RU,1675718671
387,Monywa,22.1167,95.1333,65.62,44,0,5.1,MM,1675718671
388,Sinegorye,62.0788,150.477,-32.17,100,99,0.67,RU,1675718671
389,Port Lavaca,28.615,-96.6261,77.32,69,75,16.11,US,1675718672
390,Saint Anthony,45.0205,-93.218,37.33,75,100,14.97,US,1675718672
391,Liku,-0.7275,119.8922,73.44,92,75,1.72,ID,1675718672
392,Talnakh,69.4865,88.3972,-7.8,99,100,5.19,RU,1675718673
393,San Jose,37.3394,-121.895,61.32,52,20,12.66,US,1675718395
394,Bandarbeyla,9.4942,50.8122,75.02,76,86,13.91,SO,1675718674
395,Oktyabrskiy,54.4815,53.471,4.44,100,96,2.08,RU,1675718674
396,Pangody,65.85,74.4859,-16.83,100,100,5.48,RU,1675718675
397,Anantapur,14.6833,77.6,72.88,56,30,3.8,IN,1675718675
398,Van,38.4924,43.3831,34.95,69,75,5.75,TR,1675718675
399,Peleduy,59.6289,112.7406,-6.29,99,100,1.28,RU,1675718676
400,Lewisporte,49.2499,-55.0482,20.91,94,100,8.16,CA,1675718676
401,Soure,-0.7167,-48.5233,78.84,85,100,9.82,BR,1675718676
402,Salamiyah,35.0113,37.0532,42.53,80,90,26.57,SY,1675718677
403,Petropavlivka,48.4564,36.4367,20.82,88,92,12.93,UA,1675718678
404,Kimbe,-5.5502,150.1429,76.95,91,100,2.35,PG,1675718679
405,Chegutu,-18.1302,30.1407,67.96,61,57,5.44,ZW,1675718679
406,Gizo,-8.103,156.8419,81.05,81,100,12.77,SB,1675718679
407,Santa Fe,-31.6333,-60.7,98.02,23,4,4.0,AR,1675718533
408,Guiratinga,-16.3494,-53.7583,77.32,84,99,3.6,BR,1675718680
409,Terra Nova,-12.3667,-40.6667,77.09,56,48,4.27,BR,1675718399
410,Huruta,8.15,39.35,59.67,28,12,7.74,ET,1675718680
411,Amuntai,-2.4177,115.2494,71.83,98,100,0.87,ID,1675718680
412,Mitsamiouli,-11.3847,43.2844,81.25,80,99,10.76,KM,1675718681
413,Bhairab Bazar,24.0667,90.9667,58.28,51,0,4.14,BD,1675718682
414,Stornoway,58.2093,-6.3865,48.16,94,100,26.46,GB,1675718682
415,Sobolevo,54.4299,31.8996,23.04,97,100,2.33,RU,1675718683
416,Malatya,38.5,38.0,30.25,100,75,3.44,TR,1675718683
417,Tucuma,-0.1833,-50.05,77.47,90,71,7.11,BR,1675718683
418,Zhumadian,32.9794,114.0294,39.58,90,22,5.26,CN,1675718684
419,Aloleng,16.1307,119.7824,77.11,79,70,7.87,PH,1675718684
420,Marakkanam,12.2,79.95,72.18,82,0,7.09,IN,1675718684
421,Mumford,5.2618,-0.759,79.57,88,29,14.07,GH,1675718685
422,Tutoia,-2.7619,-42.2744,79.61,81,100,10.8,BR,1675718686
423,Srednekolymsk,67.45,153.6833,-39.77,100,100,6.42,RU,1675718686
424,Gwadar,25.1216,62.3254,70.25,61,5,9.86,PK,1675718687
425,Praia Da Vitoria,38.7333,-27.0667,55.76,88,75,25.21,PT,1675718687
426,Provideniya,64.3833,-173.3,-0.29,71,75,6.71,RU,1675718687
427,Moree,-29.4667,149.85,74.26,63,74,13.62,AU,1675718521
428,Aquiraz,-3.9014,-38.3911,82.49,83,20,7.29,BR,1675718688
429,Kahului,20.8947,-156.47,78.84,75,40,14.97,US,1675718603
430,Knin,44.0439,16.2,30.13,60,100,8.7,HR,1675718688
431,Moose Factory,51.2585,-80.6094,15.8,62,20,13.8,CA,1675718688
432,Tiarei,-17.5333,-149.3333,84.22,76,34,16.17,PF,1675718689
433,Betioky,-23.7167,44.3833,75.72,73,100,7.07,MG,1675718694
434,Antofagasta,-23.65,-70.4,72.68,74,19,9.04,CL,1675718694
435,Dicabisagan,17.0818,122.4157,74.75,90,89,1.59,PH,1675718694
436,Manggar,-2.8833,108.2667,78.08,88,100,7.9,ID,1675718695
437,Navalmoral De La Mata,39.8916,-5.5406,42.78,75,0,15.73,ES,1675718695
438,Ales,44.1333,4.0833,43.7,74,5,5.66,FR,1675718695
439,Yatou,37.15,122.3833,34.9,82,92,7.92,CN,1675718696
440,Tuatapere,-46.1333,167.6833,59.7,79,91,5.55,NZ,1675718696
441,Moranbah,-22.0016,148.0466,76.06,88,100,15.9,AU,1675718696
442,Kenitra,34.261,-6.5802,43.56,77,0,2.19,MA,1675718499
443,Pangai,-19.8,-174.35,75.31,83,75,6.91,TO,1675718697
444,Pietrosani,45.1833,24.85,20.16,74,62,5.28,RO,1675718697
445,Santa Cruz Cabralia,-16.2781,-39.0247,82.63,78,20,12.66,BR,1675718697
446,Qandala,11.472,49.8728,74.41,77,87,5.55,SO,1675718698
447,Bonavista,48.6499,-53.1147,25.66,94,100,14.63,CA,1675718699
448,Rabo De Peixe,37.8,-25.5833,56.71,94,75,16.11,PT,1675718699
449,Iskateley,67.6803,53.1512,-0.09,96,100,9.73,RU,1675718699
450,Vostok,46.4856,135.8833,-4.65,98,100,4.81,RU,1675718700
451,Ugoofaaru,5.6667,73.0,80.38,76,100,8.46,MV,1675718700
452,Shelton,41.3165,-73.0932,48.18,58,0,21.85,US,1675718162
453,Rychnov Nad Kneznou,50.1628,16.2749,20.05,85,8,3.27,CZ,1675718700
454,Wanning,18.8003,110.3967,71.15,92,26,3.0,CN,1675718701
455,Kyaikkami,16.08,97.5675,77.65,72,0,2.95,MM,1675718701
456,Cairns,-16.9167,145.7667,78.75,94,40,4.61,AU,1675718702
457,Svetlaya,46.5389,138.3297,7.3,77,0,6.13,RU,1675718703
458,Boden,65.8252,21.6886,30.2,90,100,9.86,SE,1675718704
459,Rocha,-34.4833,-54.3333,79.65,55,5,10.51,UY,1675718705
460,Emerald,-23.5333,148.1667,77.34,88,52,9.01,AU,1675718438
461,Port Lincoln,-34.7333,135.8667,63.01,84,0,14.83,AU,1675718706
462,Langsa,4.4683,97.9683,73.51,96,99,1.92,ID,1675718707
463,Makakilo City,21.3469,-158.0858,80.92,64,20,18.41,US,1675718707
464,Imbituba,-28.24,-48.6703,77.54,71,36,4.74,BR,1675718708
465,Bria,6.5423,21.9863,77.31,15,24,3.65,CF,1675718708
466,Vila Do Maio,15.1333,-23.2167,68.79,62,43,23.73,CV,1675718708
467,Assiniboia,49.6334,-105.9845,31.82,59,6,17.27,CA,1675718709
468,Sisimiut,66.9395,-53.6735,-3.32,91,100,5.84,GL,1675718710
469,Black River,18.0264,-77.8487,80.78,66,65,2.68,JM,1675718710
470,Shingu,33.7333,135.9833,47.52,56,100,5.06,JP,1675718711
471,Adrar,20.5022,-10.0711,64.27,22,58,9.01,MR,1675718711
472,Nanakuli,21.3906,-158.1547,82.35,55,20,14.97,US,1675718711
473,Chulumani,-16.4096,-67.5263,73.09,66,55,4.41,BO,1675718712
474,Acajutla,13.5928,-89.8275,86.22,47,0,9.66,SV,1675718712
475,Wyndham,37.6985,-77.6125,55.08,47,0,5.75,US,1675718713
476,Kjollefjord,70.9457,27.3465,39.25,81,75,31.07,NO,1675718713
477,Tual,-5.6667,132.75,81.25,77,100,14.52,ID,1675718714
478,Felipe Carrillo Puerto,19.5833,-88.05,82.94,55,28,3.91,MX,1675718714
479,Preobrazheniye,42.9019,133.9064,16.36,61,4,4.9,RU,1675718714
480,Mattru,7.6244,-11.8332,77.05,65,90,4.97,SL,1675718715
481,Camacha,33.0833,-16.3333,56.62,51,75,21.85,PT,1675718716
482,Chimala,-8.85,34.0167,65.14,98,100,1.23,TZ,1675718716
483,Burgeo,47.6167,-57.6152,30.4,96,100,4.5,CA,1675718717
484,Dormidontovka,47.7702,134.9076,0.39,98,100,4.21,RU,1675718717
485,Severo-Yeniseyskiy,60.3725,93.0408,-14.08,100,100,3.02,RU,1675718718
486,Izumo,35.3667,132.7667,40.95,81,75,5.75,JP,1675718718
487,Dakar,14.6937,-17.4441,67.08,77,61,13.8,SN,1675718600
488,Murgab,37.4966,61.9714,46.27,66,100,9.22,TM,1675718719
489,Tripoli,32.8752,13.1875,52.86,58,82,9.62,LY,1675718719
490,Anadyr,64.75,177.4833,-14.01,75,75,11.18,RU,1675718720
491,Larsnes,62.2028,5.5773,48.02,84,100,12.15,NO,1675718720
492,Requena,39.4883,-1.1004,37.53,88,100,7.16,ES,1675718720
493,Alirajpur,22.3031,74.3546,66.45,45,0,4.29,IN,1675718721
494,Merauke,-8.4667,140.3333,77.63,91,100,12.35,ID,1675718721
495,Honiara,-9.4333,159.95,79.59,85,99,6.26,SB,1675718723
496,Smithers,54.7804,-127.1743,39.52,87,100,12.66,CA,1675718723
497,Kiunga,-6.1219,141.2906,72.95,99,100,2.33,PG,1675718723
498,Anderson,34.5334,-82.6499,65.28,30,0,6.91,US,1675718724
499,Lorengau,-2.0226,147.2712,77.83,93,100,10.27,PG,1675718724
500,Yima,34.7381,111.8839,36.12,68,42,1.32,CN,1675718725
501,Dinar,38.065,30.1656,30.16,81,100,13.18,TR,1675718725
502,Pizhma,57.8642,47.1171,-8.37,100,100,1.45,RU,1675718726
503,Qasigiannguit,68.8193,-51.1922,-1.95,99,100,3.27,GL,1675718726
504,Rovaniemi,66.5,25.7167,29.61,100,100,12.66,FI,1675718727
505,Baiyin,36.5583,104.2081,28.24,39,89,1.57,CN,1675718727
506,Turka,49.1541,23.0297,14.79,99,100,0.89,UA,1675718728
507,Kencong,-8.2833,113.3667,74.68,90,100,3.0,ID,1675718728
508,Ostrovnoy,68.0531,39.5131,21.22,88,100,21.68,RU,1675718728
509,Kishi,9.0833,3.85,85.51,20,100,2.64,NG,1675718729
510,Berberati,4.2612,15.7922,73.53,23,63,3.09,CF,1675718729
511,Buchanan,5.8808,-10.0467,79.23,85,36,7.76,LR,1675718730
512,Senneterre,48.3835,-77.2328,12.0,80,12,3.67,CA,1675718730
513,Aleksandrovskiy Zavod,50.9237,117.9374,-16.8,100,79,4.09,RU,1675718730
514,Hay River,60.8156,-115.7999,-2.22,71,100,8.05,CA,1675718731
515,Atasu,48.6814,71.6433,11.07,97,100,7.67,KZ,1675718731
516,Camopi,3.1655,-52.3158,74.79,97,94,4.47,GF,1675718732
517,Tirukkoyilur,11.95,79.2,67.33,88,27,5.3,IN,1675718733
518,Senador Guiomard,-10.1522,-67.7392,85.75,95,100,1.03,BR,1675718733
519,Sungairaya,0.7,108.9,78.3,87,100,3.8,ID,1675718733
520,Grand-Santi,4.25,-54.3833,76.17,97,46,3.51,GF,1675718734
521,Kimparana,12.8347,-4.9244,86.11,11,100,4.25,ML,1675718734
522,Helmsdale,58.1168,-3.6517,46.35,83,46,12.55,GB,1675718734
523,Grand Gaube,-20.0064,57.6608,79.2,81,91,5.01,MU,1675718735
524,Brigantine,39.4101,-74.3646,49.03,58,20,21.85,US,1675718736
525,Shimoda,34.6667,138.95,46.11,56,100,5.73,JP,1675718736
526,Krasnovishersk,60.4078,57.082,-10.59,100,67,3.0,RU,1675718738
527,Eureka,40.8021,-124.1637,55.2,68,99,5.01,US,1675718738
528,Avera,33.194,-82.5271,67.55,36,0,0.67,US,1675718739
529,Abnub,27.2696,31.1511,48.42,37,59,7.25,EG,1675718740
530,Zahesi,41.8246,44.7536,33.51,98,100,2.33,GE,1675718740
531,Baneh,35.9975,45.8853,33.57,99,100,8.84,IR,1675718741
532,Mirandela,41.4874,-7.187,42.84,61,0,4.25,PT,1675718742
533,Ayr,55.4627,-4.6339,46.51,81,75,10.36,GB,1675718742
534,Natal,-5.795,-35.2094,79.45,83,75,18.41,BR,1675718691
535,La Ligua,-32.4524,-71.2311,78.39,51,0,8.9,CL,1675718746
536,Lapao,-11.3833,-41.8319,82.13,36,100,12.93,BR,1675718747
537,Niteroi,-22.8833,-43.1036,83.82,87,75,14.97,BR,1675718748
538,Amahai,-3.3333,128.9167,77.59,84,100,4.97,ID,1675718749
539,Pindiga,9.9833,10.9333,80.76,16,100,15.21,NG,1675718750
540,Darasun,51.6667,114.0,-10.93,100,31,2.46,RU,1675718751
541,Newton,42.337,-71.2092,45.55,61,75,13.8,US,1675718499
542,Gornyatskiy,48.2915,40.9575,16.43,92,100,12.39,RU,1675718752
543,Corinto,37.9407,22.9573,42.89,81,77,6.49,GR,1675718753
544,Bangassou,4.7413,22.8184,75.06,21,2,2.21,CF,1675718754
545,Jalu,29.0331,21.5482,51.3,52,74,9.1,LY,1675718755
